City_ID,City,Lat,Lng,Max Temp,Humidity,Cloudiness,Wind Speed,Country,Date
0,camana,-16.6228,-72.7111,75.47000000000006,70,54,4.08,pe,1681328842
1,vaini,-21.2,-175.2,79.808,73,94,8.34,to,1681328843
2,vila franca do campo,37.7167,-25.4333,64.47200000000004,67,100,2.84,pt,1681328843
3,lompoc,34.6392,-120.4569,60.27800000000006,65,75,9.0,us,1681328844
4,hobart,-42.8832,147.3317,63.69800000000002,55,51,2.16,au,1681328846
5,hilo,19.7297,-155.09,74.75,77,99,4.54,us,1681328846
6,shepsi,44.0355,39.1474,54.05,99,100,3.89,ru,1681328848
7,afmadu,0.5172,42.0711,98.13200000000002,34,100,6.21,so,1681328850
8,port elizabeth,-33.918,25.5701,68.95400000000006,48,100,4.93,za,1681328850
9,maceio,-9.6667,-35.7167,85.4600000000001,63,99,4.13,br,1681328851
10,rikitea,-23.1203,-134.9692,78.31400000000004,69,60,5.97,pf,1681328852
11,ojinaga,29.5667,-104.4167,87.566,26,29,6.13,mx,1681328853
12,pangai,-19.8,-174.35,80.65400000000005,73,57,8.07,to,1681328854
13,bethel,60.7922,-161.7558,30.272000000000038,86,97,6.56,us,1681328854
14,luderitz,-26.6481,15.1594,71.42000000000007,49,8,5.05,na,1681328855
15,longyearbyen,78.2167,15.6333,33.81800000000008,93,49,3.26,sj,1681328856
16,acapulco,16.85,-99.9167,86.25200000000008,47,13,5.25,mx,1681328857
17,qaanaaq,77.4894,-69.3322,3.2180000000000852,77,96,3.31,gl,1681328858
18,vaitupu,-13.2333,-176.15,83.984,74,33,5.89,wf,1681328859
19,clyde river,70.45,-68.5667,7.016000000000009,82,70,3.98,ca,1681328859
20,leningradskiy,69.3833,178.4167,3.110000000000081,89,98,2.65,ru,1681328860
21,albany,-35.0031,117.866,73.88600000000008,48,11,9.37,au,1681328862
22,puerto carreno,6.189,-67.4859,96.134,42,73,3.98,co,1681328863
23,castro,-42.4636,-73.8083,61.30400000000006,62,21,1.81,cl,1681328864
24,lebu,-37.6167,-73.65,61.141999999999996,78,100,3.82,cl,1681328864
25,airai,7.3575,134.5578,84.92000000000007,73,23,4.59,pw,1681328865
26,puerto ayora,-0.75,-90.3167,84.97400000000002,76,70,2.86,ec,1681328866
27,ushuaia,-54.8,-68.3,40.658,74,26,2.32,ar,1681328867
28,qaqortoq,60.7167,-46.0333,34.088000000000044,83,12,2.07,gl,1681328867
29,thompson,55.75,-97.8667,34.30400000000005,92,100,5.22,ca,1681328868
30,dangriga,16.9667,-88.2167,81.75200000000008,70,3,4.83,bz,1681328869
31,tagusao,9.1924,117.8141,84.05600000000004,72,66,3.03,ph,1681328870
32,saint-georges,3.9,-51.8,85.37000000000006,79,85,2.1,gf,1681328870
33,adrasmon,40.6486,69.9856,65.30000000000001,39,96,5.0,tj,1681328871
34,palabuhanratu,-6.9875,106.5514,85.73000000000005,68,72,3.39,id,1681328872
35,taolanaro,-25.0333,47.0,82.77800000000008,56,100,5.93,mg,1681328873
36,tenenkou,14.4667,-4.9167,104.39600000000006,12,48,9.67,ml,1681328874
37,yar-sale,66.8333,70.8333,1.3640000000000327,86,100,9.02,ru,1681328875
38,punta arenas,-53.15,-70.9167,43.71800000000009,53,2,4.8,cl,1681328875
39,bredasdorp,-34.5322,20.0403,67.24400000000009,51,100,3.34,za,1681328876
40,barentsburg,78.0667,14.2333,32.21600000000001,92,95,2.87,sj,1681328877
41,east london,-33.0111,27.91,70.358,50,100,5.24,za,1681328878
42,arraial do cabo,-22.9667,-42.0167,78.38600000000008,77,98,8.32,br,1681328878
43,hithadhoo,-0.6,73.0833,83.75,69,10,2.89,mv,1681328879
44,atuona,-9.8,-139.0333,81.57200000000003,68,100,7.34,pf,1681328880
45,los llanos de aridane,28.6585,-17.9182,68.342,58,3,10.69,es,1681328880
46,hokitika,-42.7167,170.9667,59.66600000000001,88,100,3.43,nz,1681328881
47,srednekolymsk,67.45,153.6833,14.288000000000043,76,97,2.47,ru,1681328882
48,grindavik,63.8333,-22.4333,42.65600000000003,71,48,9.51,is,1681328883
49,avarua,-21.2078,-159.775,80.65400000000005,73,68,7.01,ck,1681328884
50,samusu,-13.9667,-171.3667,82.90400000000005,73,94,4.71,ws,1681328885
51,port blair,11.6667,92.75,89.40200000000007,58,45,2.65,in,1681328885
52,kumba,4.6439,9.4386,90.59000000000003,55,81,1.89,cm,1681328886
53,santa cruz,10.2605,-85.5851,97.46600000000001,28,23,7.73,cr,1681328887
54,yellowknife,62.45,-114.35,27.068000000000087,76,100,4.32,ca,1681328888
55,flin flon,54.7667,-101.8833,40.73000000000004,80,85,5.35,ca,1681328888
56,warnes,-17.5,-63.1667,88.28600000000007,62,79,5.63,bo,1681328889
57,sinnamary,5.3833,-52.95,82.25600000000003,78,29,4.46,gf,1681328890
58,kazalinsk,45.7628,62.1075,86.59400000000008,18,100,12.88,kz,1681328890
59,new norfolk,-42.7808,147.0594,66.99199999999999,56,63,1.71,au,1681328891
60,mana,5.6667,-53.7833,84.308,67,43,4.29,gf,1681328892
61,mataura,-23.3667,-149.4667,72.23000000000005,69,3,5.69,pf,1681328893
62,bengkulu,-3.8,102.2667,84.74000000000002,67,55,4.07,id,1681328893
63,mehamn,71.0333,27.85,32.55800000000001,63,36,7.75,no,1681328894
64,busselton,-33.6525,115.3455,68.30600000000004,86,58,11.68,au,1681328895
65,amudat,1.95,34.95,88.37600000000009,34,87,8.23,ug,1681328896
66,pevek,69.7008,170.3133,2.641999999999996,88,89,2.17,ru,1681328897
67,nivala,63.9167,24.9667,41.88200000000002,97,100,4.1,fi,1681328898
68,erzin,50.261,95.1623,31.802000000000078,49,10,3.75,ru,1681328898
69,saldanha,-33.0117,17.9442,62.07800000000007,65,100,5.39,za,1681328899
70,weyburn,49.6667,-103.85,47.13800000000005,69,78,7.35,ca,1681328900
71,hermanus,-34.4187,19.2345,64.54400000000007,51,100,4.5,za,1681328901
72,grand river south east,-20.2861,57.7758,82.72400000000002,74,85,6.14,mu,1681328901
73,georgetown,-7.9333,-14.4167,80.49199999999999,73,100,7.43,sh,1681328902
74,ancud,-41.8697,-73.8203,60.62000000000006,68,100,3.09,cl,1681328903
75,chokurdakh,70.6333,147.9167,6.170000000000062,90,9,2.57,ru,1681328904
76,urumqi,43.801,87.6005,58.91000000000008,31,6,5.55,cn,1681328905
77,bandarbeyla,9.4833,50.8167,83.82200000000003,68,16,5.51,so,1681328905
78,saint anthony,51.3833,-55.6,35.18600000000007,91,100,5.54,ca,1681328906
79,sawtell,-30.3646,153.1014,70.91600000000001,59,3,7.32,au,1681328907
80,hami,42.8,93.45,64.958,22,0,9.9,cn,1681328908
81,bourail,-21.5667,165.4833,80.38399999999999,76,80,3.04,nc,1681328908
82,tongchuan,34.8988,108.9506,70.89800000000002,61,100,6.48,cn,1681328909
83,kodiak,57.79,-152.4072,42.314000000000036,55,84,9.75,us,1681328910
84,barra,-11.0833,-43.1667,92.01200000000006,42,2,3.11,br,1681328911
85,bangassou,4.7333,22.8167,93.97400000000002,49,96,3.28,cf,1681328911
86,balaipungut,1.05,101.2833,95.05400000000006,59,54,2.01,id,1681328912
87,darhan,46.6167,109.4167,48.07400000000001,24,100,9.0,mn,1681328913
88,buckeye,33.3703,-112.5831,90.44600000000005,12,100,10.17,us,1681328914
89,kruisfontein,-34.0033,24.7314,68.73800000000006,43,100,3.22,za,1681328915
90,ponta do sol,17.2,-25.1,77.18000000000004,72,13,5.77,cv,1681328915
91,cape town,-33.9258,18.4232,63.248000000000026,56,100,2.74,za,1681328916
92,gebre guracha,9.8,38.4,76.80200000000008,33,99,2.62,et,1681328917
93,tabiauea,0.9,173.0333,82.11200000000005,72,20,4.46,ki,1681328917
94,dhone,15.4167,77.8833,103.04600000000005,15,6,5.51,in,1681328918
95,barrow,71.2906,-156.7886,0.4280000000000648,83,73,4.53,us,1681328919
96,tasiilaq,65.6,-37.6333,35.041999999999994,94,100,7.33,gl,1681328919
97,saint george,32.3817,-64.6781,65.71400000000003,58,6,7.04,bm,1681328920
98,dikson,73.5069,80.5464,4.4780000000000655,88,19,9.86,ru,1681328921
99,port alfred,-33.5906,26.891,70.01600000000002,48,100,7.32,za,1681328921
100,asmara,15.3333,38.9333,78.44000000000003,26,49,4.84,er,1681328922
101,ponta delgada,37.7333,-25.6667,63.806000000000026,67,100,4.65,pt,1681328923
102,bluff,-46.6,168.3333,56.228000000000065,79,94,9.75,nz,1681328924
103,krasnozatonskiy,61.6758,50.9794,38.21000000000008,95,100,3.38,ru,1681328924
104,mount gambier,-37.8318,140.7792,69.76400000000004,66,27,4.8,au,1681328925
105,tsihombe,-25.3,45.4833,84.74000000000002,55,100,5.07,mg,1681328926
106,sao jose da coroa grande,-8.9,-35.15,83.84000000000003,67,84,5.05,br,1681328926
107,manokwari,-0.8667,134.0833,82.86800000000008,76,47,2.3,id,1681328927
108,kapaa,22.0783,-159.3219,75.81200000000007,79,52,7.97,us,1681328928
109,poya,-21.35,165.15,81.32000000000006,74,67,2.84,nc,1681328928
110,thinadhoo,0.5333,72.9333,83.82200000000003,70,6,2.69,mv,1681328929
111,talnakh,69.4865,88.3972,-4.485999999999969,91,100,3.61,ru,1681328930
112,te anau,-45.4167,167.7167,57.30800000000001,91,99,2.68,nz,1681328930
113,koslan,63.4564,48.8989,34.141999999999996,99,100,4.77,ru,1681328931
114,rio grande,-32.0333,-52.0833,76.37000000000006,79,72,7.69,br,1681328932
115,mount isa,-20.7252,139.4973,93.92000000000007,18,96,6.01,au,1681328933
116,mar del plata,-38.0023,-57.5575,62.25800000000001,55,99,10.62,ar,1681328934
117,saint-philippe,-21.35,55.7667,80.07800000000006,79,18,3.55,re,1681328934
118,sitka,57.0531,-135.33,38.53399999999999,91,100,3.17,us,1681328935
119,ottawa,38.6156,-95.2675,77.66600000000001,41,0,8.62,us,1681328936
120,darasun,51.6594,113.9751,49.62200000000004,42,84,4.6,ru,1681328936
121,port augusta,-32.496,137.7728,71.11400000000003,49,23,5.24,au,1681328937
122,dunedin,-45.8667,170.5,53.18600000000007,93,100,5.88,nz,1681328938
123,general roca,-39.028,-67.5737,55.940000000000026,53,100,7.03,ar,1681328939
124,chagda,58.7475,130.6197,33.854000000000056,67,75,2.2,ru,1681328939
125,bobonong,-21.9667,28.3333,81.93200000000002,44,60,7.22,bw,1681328940
126,khatanga,71.9667,102.5,16.10600000000003,73,16,11.52,ru,1681328941
127,tiksi,71.6872,128.8694,1.8499999999999979,97,98,2.24,ru,1681328942
128,faanui,-16.4833,-151.75,82.76000000000008,67,59,6.13,pf,1681328943
129,gornopravdinsk,60.05,69.9,30.52400000000001,83,100,5.82,ru,1681328944
130,moyale,3.5692,39.0833,81.95,54,99,5.74,et,1681328944
131,colquechaca,-18.6667,-66.0167,49.87400000000001,25,39,2.44,bo,1681328945
132,okha,53.5739,142.9478,30.398000000000025,96,100,11.64,ru,1681328946
133,oulu,65.0167,25.4667,39.72200000000004,95,97,5.72,fi,1681328946
134,illoqqortoormiut,70.4833,-21.9667,33.062000000000054,88,100,5.58,gl,1681328947
135,tura,64.2833,100.25,29.10200000000008,85,98,8.6,ru,1681328948
136,kaitangata,-46.275,169.85,53.276000000000096,92,100,5.74,nz,1681328949
137,hofn,64.25,-15.2167,43.10600000000003,65,100,5.41,is,1681328949
138,asau,-7.5,178.6667,82.88600000000008,70,63,4.91,tv,1681328950
139,eyl,7.9667,49.8167,86.19800000000004,63,100,6.82,so,1681328951
140,heinola,61.2167,26.0333,48.97400000000002,92,100,3.76,fi,1681328952
141,manchester,35.4817,-86.0886,76.44200000000001,34,0,2.4,us,1681328952
142,kunming,25.0389,102.7183,83.15600000000003,15,0,7.98,cn,1681328953
143,tecoanapa,16.5167,-98.75,87.40400000000005,51,2,6.36,mx,1681328954
144,samana,19.2167,-69.3167,86.52200000000005,62,40,4.62,do,1681328955
145,kefamenanu,-9.4467,124.4781,84.83000000000004,67,29,3.85,id,1681328955
146,yakeshi,49.2833,120.7333,46.11200000000006,29,6,5.89,cn,1681328956
147,padang,-0.9532,100.3677,86.84600000000006,67,67,2.87,id,1681328957
148,ostrovnoy,68.0531,39.5131,28.616000000000007,77,100,9.3,ru,1681328958
149,ternate,0.8,127.4,86.25200000000008,69,24,3.01,id,1681328958
150,fairbanks,64.8378,-147.7164,25.664000000000033,83,80,2.94,us,1681328959
151,quang ngai,15.1167,108.8,90.05000000000001,58,66,5.2,vn,1681328960
152,san ramon,-13.2833,-64.7167,91.32800000000006,79,72,3.45,bo,1681328961
153,alta floresta,-9.9,-55.9,91.49000000000002,67,89,1.93,br,1681328962
154,kavaratti,10.5667,72.6167,84.61400000000003,72,92,5.04,in,1681328962
155,mys shmidta,68.9333,-179.5,3.236000000000068,100,86,4.31,ru,1681328963
156,vila velha,-20.3333,-40.2833,79.52000000000007,70,98,3.4,br,1681328964
157,bridlington,54.095,-0.2081,47.408,63,100,13.51,gb,1681328964
158,banjar,-7.1955,107.4313,66.23600000000008,76,99,2.3,id,1681328965
159,bogorodskoye,52.3658,140.4456,34.088000000000044,88,94,7.97,ru,1681328966
160,alofi,-19.0167,-169.9167,80.33000000000004,73,32,9.22,nu,1681328967
161,meulaboh,4.1363,96.1285,85.29800000000003,67,75,2.71,id,1681328967
162,kangaatsiaq,68.3,-53.4667,25.88000000000004,87,100,3.78,gl,1681328968
163,tammisaari,59.9667,23.4333,49.85600000000003,75,32,6.84,fi,1681328969
164,pringsewu,-5.3582,104.9744,88.71800000000009,56,100,2.52,id,1681328970
165,victoria,-4.6167,55.45,83.53399999999999,70,25,4.45,sc,1681328971
166,saquena,-4.6667,-73.5167,91.43600000000006,55,82,1.39,pe,1681328971
167,nikolskoye,55.1939,165.9925,31.694000000000074,73,93,12.1,ru,1681328972
168,khani,57.0333,120.9667,33.872000000000035,79,100,2.46,ru,1681328973
169,upernavik,72.7833,-56.1667,22.604000000000052,76,63,3.39,gl,1681328974
170,saleaula,-13.4333,-172.3333,83.03000000000004,75,37,4.62,ws,1681328975
171,belushya guba,71.5392,52.3321,5.504000000000051,80,33,6.0,ru,1681328976
172,haines junction,60.75,-137.5,35.81600000000001,47,100,2.11,ca,1681328976
173,beloha,-25.1667,45.05,82.16600000000001,55,100,4.71,mg,1681328977
174,karup,56.3098,9.1709,48.938000000000045,63,100,9.12,dk,1681328978
175,bambous virieux,-20.3428,57.7575,83.35400000000006,74,84,6.16,mu,1681328978
176,chunoyar,57.4467,97.3217,38.82200000000004,65,98,6.3,ru,1681328979
177,huancayo,-12.0667,-75.2333,64.85,51,47,3.9,pe,1681328980
178,bone,-4.5386,120.3279,89.18600000000006,62,94,3.05,id,1681328980
179,nizhneyansk,71.4333,136.0667,4.6040000000000525,88,6,4.5,ru,1681328981
180,tuktoyaktuk,69.45,-133.0667,1.7240000000000109,71,40,5.16,ca,1681328982
181,senno,54.8042,29.7044,59.16200000000006,42,100,6.93,by,1681328982
182,bathsheba,13.2167,-59.5167,84.81200000000007,63,37,7.95,bb,1681328983
183,cuamba,-14.8031,36.5372,81.0680000000001,70,82,1.9,mz,1681328984
184,lubao,-5.3667,25.75,78.85400000000006,77,100,2.28,cd,1681328984
185,algiers,36.7631,3.0506,75.95600000000003,33,5,5.9,dz,1681328985
186,texarkana,33.425,-94.0475,75.83000000000004,51,51,2.5,us,1681328986
187,vestmannaeyjar,63.365,-20.2075,45.194000000000074,63,100,9.13,is,1681328986
188,nuuk,64.1833,-51.75,32.75600000000003,77,39,4.25,gl,1681328987
189,griesheim,49.8628,8.5753,52.98800000000004,92,100,5.36,de,1681328988
190,liverpool,44.0333,-64.7167,54.21200000000006,57,82,8.41,ca,1681328988
191,zhigansk,66.7697,123.3711,22.24400000000007,87,100,3.19,ru,1681328989
192,souillac,-20.5167,57.5167,85.22600000000008,67,44,3.79,mu,1681328990
193,portland,-38.3526,141.6057,65.58800000000005,74,22,4.36,au,1681328990
194,coihaique,-45.5667,-72.0667,54.48200000000001,50,0,2.37,cl,1681328991
195,beni,0.5,29.4667,86.05400000000006,51,80,2.53,cd,1681328992
196,prince george,53.9167,-122.7667,45.71600000000001,57,75,2.49,ca,1681328992
197,boksitogorsk,59.4741,33.8485,58.91000000000008,52,93,3.11,ru,1681328993
198,horadiz,39.4488,47.3353,83.73200000000003,42,9,5.47,az,1681328994
199,wagar,16.1528,36.2042,105.78200000000002,11,30,9.79,sd,1681328994
200,puerto quijarro,-17.7833,-57.7667,86.72000000000006,63,100,2.17,bo,1681328995
201,ukiah,39.1503,-123.2067,56.28200000000002,51,0,5.61,us,1681328996
202,attawapiskat,52.9167,-82.4333,34.44800000000002,79,93,3.71,ca,1681328996
203,ambon,-3.6954,128.1814,84.99199999999999,74,54,1.66,id,1681328997
204,broome,-17.9554,122.2392,86.43200000000002,74,100,11.36,au,1681328998
205,egvekinot,66.3167,-179.1667,4.28000000000004,87,100,4.03,ru,1681328999
206,cururupu,-1.8333,-44.8667,85.76600000000002,67,94,2.77,br,1681328999
207,jamestown,-15.9333,-5.7167,71.18600000000006,70,1,8.29,sh,1681329000
208,provideniya,64.3833,-173.3,11.191999999999997,97,86,3.42,ru,1681329001
209,soc trang,9.6033,105.98,93.59600000000006,48,74,5.35,vn,1681329002
210,marzuq,25.9044,13.8972,75.84800000000003,15,25,5.49,ly,1681329004
211,ballina,54.1167,-9.1667,45.71600000000001,92,100,14.76,ie,1681329004
212,uwayl,8.7667,27.4,105.27800000000006,25,20,4.64,sd,1681329005
213,kiunga,-6.1167,141.3,82.058,88,100,1.28,pg,1681329006
214,butaritari,3.0833,172.8167,82.34600000000006,73,68,5.19,ki,1681329007
215,jever,53.5833,7.9,47.12000000000006,95,100,8.47,de,1681329008
216,kavieng,-2.5667,150.8,83.24600000000005,77,99,7.91,pg,1681329008
217,mahebourg,-20.4081,57.7,83.67800000000007,73,76,5.82,mu,1681329009
218,salalah,17.0175,54.0828,85.6760000000001,58,5,5.05,om,1681329010
219,spring hill,28.5556,-82.4506,76.85600000000002,50,100,8.55,us,1681329011
220,thunder bay,48.4,-89.2333,55.50800000000001,80,60,1.72,ca,1681329011
221,aberystwyth,52.4167,-4.0667,44.06000000000008,85,99,15.32,gb,1681329012
222,los algarrobos,8.0167,-81.35,95.59400000000008,36,49,3.91,pa,1681329013
223,fort-shevchenko,44.5167,50.2667,57.056000000000026,72,100,12.07,kz,1681329013
224,constitucion,25.0369,-111.6644,82.58000000000004,23,84,9.25,mx,1681329014
225,hamilton,32.2942,-64.7839,64.72400000000002,59,6,6.82,bm,1681329016
226,margate,-30.8636,30.3705,73.07600000000009,58,64,5.7,za,1681329016
227,lufilufi,-13.85,-171.5833,82.97600000000008,73,75,4.82,ws,1681329017
228,soledar,48.6793,38.089,60.026000000000096,76,99,8.94,ua,1681329018
229,macamic,48.7667,-79.0,50.18000000000004,76,83,3.14,ca,1681329019
230,kremenchuk,49.072,33.4275,52.91600000000001,93,100,6.54,ua,1681329020
231,hambantota,6.1167,81.1167,89.52800000000008,60,39,7.9,lk,1681329021
232,jega,12.2175,4.3792,105.29600000000005,23,41,5.61,ng,1681329022
233,bulungu,-4.55,18.6,78.00800000000001,93,100,2.22,cd,1681329023
234,guerrero negro,27.9769,-114.0611,64.61600000000001,59,97,8.62,mx,1681329024
235,yulara,-25.2453,130.9805,88.46600000000001,35,76,8.21,au,1681329024
236,harper,4.375,-7.7169,85.92800000000007,71,41,4.69,lr,1681329025
237,vung tau,10.35,107.0667,83.78600000000007,74,22,5.84,vn,1681329026
238,yenagoa,4.9247,6.2642,90.19400000000007,60,95,3.53,ng,1681329026
239,jarocin,51.9708,17.4988,54.08600000000007,59,53,4.68,pl,1681329027
240,umzimvubu,-31.6229,29.5448,73.54400000000007,56,54,4.69,za,1681329028
241,cherskiy,68.75,161.3,5.341999999999995,85,100,2.3,ru,1681329028
242,vostok,48.9167,148.9,33.188000000000045,87,1,8.35,ru,1681329030
243,viligili,0.75,73.3833,83.89400000000008,71,6,3.48,mv,1681329030
244,aksay,51.1678,52.995,63.01400000000004,73,100,11.69,kz,1681329031
245,iberia,-11.35,-69.5833,87.47600000000008,55,77,2.02,pe,1681329032
246,kahului,20.8947,-156.47,78.8180000000001,60,22,7.43,us,1681329032
247,kenora,49.7667,-94.4667,65.35400000000006,50,75,4.46,ca,1681329033
248,geraldton,-28.779,114.6146,73.16600000000001,56,71,12.08,au,1681329034
249,torbay,47.65,-52.7333,42.22400000000001,71,58,7.02,ca,1681329035
250,cabo san lucas,22.8833,-109.9,87.04400000000007,49,94,7.79,mx,1681329036
251,voh,-20.9667,164.7,82.36400000000003,68,73,2.69,nc,1681329037
252,san roque,6.1564,124.2667,87.13399999999999,68,16,2.84,ph,1681329038
253,paamiut,62.0,-49.75,32.48600000000007,52,10,3.23,gl,1681329038
254,tamandare,-8.75,-35.1,84.45200000000008,65,88,5.1,br,1681329039
255,lavrentiya,65.5833,-171.0,9.17600000000009,92,12,3.67,ru,1681329040
256,hovd,44.6667,102.1667,42.08000000000004,30,87,6.84,mn,1681329040
257,vanavara,60.34,102.2797,30.956000000000028,84,89,6.83,ru,1681329041
258,jining,41.0275,113.1058,60.09800000000003,27,22,10.94,cn,1681329042
259,ambilobe,-13.2,49.05,88.89800000000002,61,46,3.03,mg,1681329043
260,concordia,-31.393,-58.0209,81.28399999999999,61,49,8.27,ar,1681329043
261,meyungs,7.3519,134.4544,84.90200000000007,72,20,4.48,pw,1681329044
262,beira,-19.8436,34.8389,79.358,78,83,4.86,mz,1681329045
263,saskylakh,71.9167,114.0833,16.44800000000002,75,86,7.78,ru,1681329046
264,jurm,36.8648,70.8342,72.87800000000007,20,37,2.72,af,1681329047
265,bayir,30.7636,36.6789,59.97200000000004,42,45,14.78,jo,1681329048
266,iturama,-19.7333,-50.1833,80.90600000000003,72,100,3.27,br,1681329048
267,piombino,42.9167,10.5333,58.31600000000001,75,79,5.92,it,1681329050
268,banda aceh,5.5577,95.3222,86.27000000000007,67,95,4.62,id,1681329050
269,yerbogachen,61.2767,108.0108,27.788000000000046,70,95,5.53,ru,1681329051
270,copenhagen,55.6667,12.5833,46.59800000000003,73,42,9.88,dk,1681329052
271,lata,-10.7167,165.8333,83.91200000000006,70,99,1.14,sb,1681329053
272,caravelas,-17.75,-39.25,81.05000000000001,90,96,3.83,br,1681329054
273,north bend,43.4067,-124.2231,47.48000000000004,77,20,5.7,us,1681329055
274,severodvinsk,64.5635,39.8302,33.02600000000009,95,100,6.2,ru,1681329056
275,manicore,-5.8122,-61.2975,93.59600000000006,49,34,1.41,br,1681329057
276,dobele,56.625,23.2786,60.242,57,100,5.2,lv,1681329057
277,araouane,18.9,-3.55,94.01000000000008,6,68,7.01,ml,1681329058
278,quatre cocos,-20.2078,57.7625,82.79600000000005,75,86,6.11,mu,1681329059
279,marawi,18.4833,31.8167,89.51000000000008,12,6,11.02,sd,1681329059
280,rudbar,30.15,62.6,97.23200000000001,12,0,4.23,af,1681329060
281,coquimbo,-29.9533,-71.3436,66.00200000000008,75,27,3.89,cl,1681329061
282,joshimath,30.5667,79.5667,73.74199999999999,25,0,4.01,in,1681329062
283,chara,56.9064,118.2631,26.69000000000002,76,27,1.66,ru,1681329062
284,ilulissat,69.2167,-51.1,23.594000000000072,93,71,3.03,gl,1681329064
285,vardo,70.3667,31.1,32.846000000000046,57,99,7.88,no,1681329065
286,mitsamiouli,-11.3847,43.2844,84.308,68,6,3.66,km,1681329065
287,kemijarvi,66.6667,27.4167,35.47400000000001,97,100,3.96,fi,1681329066
288,amderma,69.7576,61.6655,3.4339999999999904,90,100,6.02,ru,1681329067
289,comodoro rivadavia,-45.8641,-67.4966,50.108000000000004,40,5,9.31,ar,1681329068
290,half moon bay,37.4636,-122.4275,55.526000000000096,63,40,11.33,us,1681329068
291,mozelos,41.8667,-8.4,59.846000000000046,57,17,5.46,pt,1681329069
292,nouadhibou,20.9,-17.0667,67.85600000000002,79,5,4.33,mr,1681329070
293,eureka,40.8022,-124.1625,52.34000000000002,61,6,9.91,us,1681329071
294,ribeira grande,38.5167,-28.7,62.99600000000005,84,87,5.36,pt,1681329072
295,tautira,-17.7333,-149.15,80.72600000000008,73,19,4.74,pf,1681329074
296,evensk,61.95,159.2333,17.06000000000008,65,0,4.16,ru,1681329074
297,dolbeau,48.8667,-72.2333,41.57600000000009,67,93,7.95,ca,1681329075
298,biograd na moru,43.9433,15.4519,62.45600000000003,42,65,4.15,hr,1681329076
299,timbiqui,2.7717,-77.6654,85.78399999999999,67,78,3.72,co,1681329077
300,sogdiondon,57.6939,112.16,25.952000000000076,71,100,3.05,ru,1681329078
301,nyrob,60.733,56.7202,33.728000000000065,59,98,5.86,ru,1681329078
302,tumannyy,68.8847,35.6944,27.32000000000006,76,91,5.15,ru,1681329079
303,bintulu,3.1667,113.0333,85.49600000000005,70,98,3.01,my,1681329080
304,carnarvon,-24.8807,113.6594,76.37000000000006,63,27,10.59,au,1681329081
305,autlan,19.7667,-104.3667,91.47200000000004,20,42,4.74,mx,1681329081
306,kaeo,-35.1,173.7833,70.91600000000001,72,41,3.56,nz,1681329082
307,santa isabel,28.3833,-113.35,79.12400000000002,14,86,4.34,mx,1681329083
308,trapani,38.0167,12.4833,64.59800000000003,57,42,5.69,it,1681329083
309,kununurra,-15.7781,128.7441,89.07800000000006,72,100,5.39,au,1681329084
310,port hawkesbury,45.6,-61.35,40.766000000000005,97,100,8.24,ca,1681329085
311,shenjiamen,29.9576,122.298,60.00800000000001,77,58,6.34,cn,1681329085
312,altus,34.6381,-99.3336,78.85400000000006,38,0,8.13,us,1681329086
313,codrington,17.6333,-61.8333,77.86400000000003,71,3,7.35,ag,1681329087
314,okhotsk,59.3833,143.3,27.608000000000004,76,17,2.78,ru,1681329088
315,norman wells,65.2833,-126.85,31.28000000000004,55,75,2.93,ca,1681329089
316,iqaluit,63.7333,-68.5,21.488000000000042,85,95,5.16,ca,1681329089
317,fort nelson,58.8167,-122.5333,49.33399999999999,25,20,2.58,ca,1681329090
318,kogon,39.7228,64.5517,99.28399999999999,12,63,9.31,uz,1681329091
319,karasuk,53.7377,78.0403,56.93000000000004,35,26,8.33,ru,1681329092
320,nome,64.5011,-165.4064,5.288000000000043,68,2,3.48,us,1681329092
321,bonthe,7.5264,-12.505,90.69800000000004,54,97,5.99,sl,1681329094
322,puerto leguizamo,-0.1934,-74.7819,86.88200000000002,67,96,1.16,co,1681329095
323,huaihua,27.5494,109.9592,80.99600000000005,80,88,2.24,cn,1681329096
324,zyryanka,65.75,150.85,17.348000000000024,74,89,2.05,ru,1681329097
325,koygorodok,60.445,50.9968,44.94199999999999,72,97,4.72,ru,1681329097
326,chumikan,54.7183,135.315,28.958000000000006,79,100,11.36,ru,1681329098
327,petropavlovsk-kamchatskiy,53.0452,158.6483,32.59400000000007,87,100,9.54,ru,1681329099
328,sao filipe,14.9,-24.5167,73.67000000000007,70,6,4.71,cv,1681329100
329,sur,22.5667,59.5289,89.65400000000005,42,79,5.6,om,1681329100
330,timberlake,37.3206,-79.2578,80.6,29,12,3.23,us,1681329101
331,riyadh,24.6537,46.7152,95.50400000000005,31,9,10.65,sa,1681329102
332,tygda,53.1167,126.3333,38.13800000000005,50,100,4.3,ru,1681329103
333,wattignies,50.5864,3.0439,52.82600000000009,79,97,11.73,fr,1681329104
334,lorengau,-2.0167,147.2667,85.15400000000005,72,89,6.52,pg,1681329104
335,rungata,-1.35,176.4333,82.34600000000006,75,38,3.99,ki,1681329105
336,mfou,3.9667,11.9333,90.46400000000003,48,94,2.38,cm,1681329106
337,shrewsbury,52.7167,-2.7333,45.03200000000002,84,74,11.12,gb,1681329106
338,sonoita,31.85,-112.8333,86.05400000000006,10,65,11.17,mx,1681329107
339,namatanai,-3.6667,152.4333,81.51800000000009,85,100,7.87,pg,1681329108
340,acarau,-2.8833,-40.1167,84.88399999999999,68,54,4.52,br,1681329108
341,envira,-7.3,-70.2167,89.78000000000004,57,96,1.33,br,1681329109
342,dujuma,1.2533,42.5708,96.134,38,100,6.6,so,1681329110
343,lamu,-2.2783,40.9033,86.792,62,99,5.48,ke,1681329111
344,sao felix do xingu,-6.6333,-51.9833,83.084,81,74,1.5,br,1681329111
345,sao joao da barra,-21.6333,-41.05,78.90800000000002,74,99,5.55,br,1681329113
346,port keats,-14.2403,129.5209,88.21400000000003,66,84,3.41,au,1681329114
347,douentza,15.0,-2.95,103.62200000000004,12,10,8.1,ml,1681329114
348,baijiantan,45.6333,85.1833,58.37000000000006,25,49,8.8,cn,1681329115
349,el dovio,4.5079,-76.2362,75.27200000000005,75,75,2.51,co,1681329116
350,ucluelet,48.9333,-125.5167,48.14600000000005,80,3,5.81,ca,1681329116
351,saint-avertin,47.3636,0.7399,53.25800000000001,73,84,10.01,fr,1681329117
352,ingham,-18.6455,146.1625,91.13000000000005,51,100,3.5,au,1681329118
353,rocky mountain house,52.3667,-114.9167,41.48600000000007,57,18,2.79,ca,1681329119
354,asfi,32.2994,-9.2372,70.52000000000007,57,0,10.12,ma,1681329119
355,tanete,-5.3306,120.1371,84.03800000000004,63,15,2.07,id,1681329120
356,loandjili,-4.7561,11.8578,84.92000000000007,70,99,3.41,cg,1681329121
357,torrijos,39.9819,-4.2835,67.15400000000005,38,100,11.09,es,1681329121
358,popondetta,-8.7667,148.2333,88.55600000000004,58,100,2.84,pg,1681329122
359,bay roberts,47.5833,-53.3,43.682000000000016,59,33,4.09,ca,1681329123
360,pisco,-13.7,-76.2167,79.358,64,16,5.15,pe,1681329124
361,zaozerne,45.1582,33.2787,51.044000000000075,90,100,6.41,ua,1681329124
362,huarmey,-10.0667,-78.1667,78.87200000000004,77,92,4.31,pe,1681329125
363,bilecik,40.1419,29.9793,45.464000000000034,86,100,3.03,tr,1681329126
364,san andres,12.5847,-81.7006,86.01800000000009,76,23,6.94,co,1681329127
365,saint-francois,16.25,-61.2667,84.18200000000002,74,5,6.94,gp,1681329127
366,atasu,48.6814,71.6433,63.733999999999995,24,100,4.63,kz,1681329128
367,houma,29.5956,-90.7194,68.75600000000003,84,85,6.83,us,1681329129
368,alekseyevka,51.9978,70.9342,57.47000000000006,33,3,6.49,kz,1681329130
369,chipinge,-20.2,32.6167,72.80600000000004,71,63,2.9,zw,1681329131
370,esperance,-33.8601,121.8826,78.42200000000004,47,15,7.59,au,1681329131
371,calabozo,8.9344,-67.4267,99.37400000000001,34,73,4.79,ve,1681329132
372,ivanjica,43.5803,20.2311,55.09400000000008,57,92,4.85,rs,1681329133
373,san cristobal,-0.9167,-89.5667,85.29800000000003,71,63,2.51,ec,1681329134
374,twentynine palms,34.1356,-116.0533,79.79000000000002,16,70,6.82,us,1681329135
375,utiroa,-1.2167,174.75,82.47200000000004,73,30,3.75,ki,1681329135
376,fukue,32.6881,128.8419,63.75200000000008,47,82,4.7,jp,1681329136
377,nguiu,-11.7591,130.6382,89.708,66,100,2.39,au,1681329137
378,sovetskaya gavan,48.9723,140.2878,34.23200000000001,92,100,4.01,ru,1681329138
379,port-cartier,50.0167,-66.8667,53.38399999999999,77,72,4.96,ca,1681329139
380,omidiyeh,30.7458,49.7087,93.23600000000008,19,96,10.0,ir,1681329139
381,laguna,-28.4833,-48.7833,81.15800000000002,55,0,5.8,br,1681329140
382,izacic,44.875,15.7819,60.98000000000005,44,60,2.87,ba,1681329141
383,tilichiki,60.4667,166.1,10.18399999999999,76,100,3.7,ru,1681329142
384,beringovskiy,63.05,179.3167,6.062000000000058,85,73,5.51,ru,1681329142
385,viedma,-40.8135,-62.9967,58.46000000000008,40,47,11.3,ar,1681329143
386,galesong,-5.3166,119.3661,85.24400000000009,71,11,4.19,id,1681329144
387,baghdad,33.3386,44.3939,77.86400000000003,67,96,15.6,iq,1681329145
388,pervomayskoye,45.45,33.7,52.37600000000009,80,100,4.95,ua,1681329145
389,delvada,20.7667,71.0333,96.71000000000008,27,100,6.65,in,1681329146
390,sao miguel do araguaia,-13.3167,-50.2167,84.59600000000006,66,100,2.04,br,1681329147
391,kozhva,65.1073,57.0459,29.26400000000003,87,100,6.22,ru,1681329148
392,ust-kamchatsk,56.2367,162.5189,27.788000000000046,75,62,5.0,ru,1681329148
393,narsaq,77.3025,-68.8425,8.906000000000027,75,100,2.28,gl,1681329149
394,addi ugri,14.8856,38.8164,85.80200000000008,21,86,5.17,er,1681329150
395,sri aman,1.2472,111.4528,96.20600000000003,48,94,1.82,my,1681329151
396,kon tum,14.3667,107.95,100.25600000000003,38,99,2.33,vn,1681329152
397,maarianhamina,60.1,19.95,46.45400000000005,84,58,5.97,fi,1681329152
398,iringa,-7.7667,35.7,75.308,59,84,2.42,tz,1681329153
399,san patricio,19.2167,-104.7,86.52200000000005,41,45,4.84,mx,1681329154
400,hasaki,35.7333,140.8333,60.530000000000044,33,0,11.77,jp,1681329154
401,bacuit,11.1858,119.3956,83.67800000000007,68,100,4.09,ph,1681329155
402,oxapampa,-10.5667,-75.4,72.71600000000001,66,70,2.51,pe,1681329156
403,neiafu,-18.65,-173.9833,81.35600000000002,73,94,8.96,to,1681329156
404,jalu,29.0333,21.55,73.61600000000001,32,0,7.57,ly,1681329157
405,baherden,38.4303,57.4369,98.2760000000001,14,96,17.16,tm,1681329158
406,we,-20.9,167.2667,83.91200000000006,72,11,2.07,nc,1681329159
407,inta,66.0833,60.1333,12.848000000000024,86,100,8.47,ru,1681329160
408,karaton,46.4353,53.4864,84.95600000000003,24,100,13.01,kz,1681329160
409,vytegra,61.0064,36.4481,37.65200000000008,92,100,2.46,ru,1681329161
410,leme,-22.2,-47.4,80.24000000000002,69,100,3.2,br,1681329162
411,ribnica,45.7386,14.7275,54.53600000000007,48,88,3.62,si,1681329163
412,bilma,18.6867,12.9192,88.84400000000008,7,6,9.34,ne,1681329164
413,nueva londres,-25.4167,-56.5333,90.75200000000008,44,0,2.49,py,1681329164
414,sorland,67.6667,12.7,44.438000000000045,80,100,8.58,no,1681329165
415,luyang,33.7356,112.9051,82.4,53,42,5.15,cn,1681329166
416,college,64.8569,-147.8028,25.07000000000006,84,100,2.82,us,1681329166
417,tezu,27.9167,96.1667,96.65600000000003,18,5,2.78,in,1681329167
418,chapleau,47.8333,-83.4,66.29000000000002,69,9,4.97,ca,1681329168
419,toliary,-23.35,43.6667,81.59000000000003,65,100,5.47,mg,1681329169
420,gold coast,-28.0003,153.4309,81.62600000000009,35,0,7.46,au,1681329169
421,namibe,-15.1961,12.1522,79.43000000000004,56,22,5.24,ao,1681329170
422,pangnirtung,66.1333,-65.75,15.22400000000001,80,76,2.9,ca,1681329171
423,slatina,45.7033,17.7028,60.81800000000008,42,22,3.09,hr,1681329172
424,saint-joseph,-21.3667,55.6167,80.2760000000001,78,18,1.65,re,1681329173
425,pochutla,15.7333,-96.4667,90.19400000000007,46,33,4.92,mx,1681329173
426,san-pedro,4.7485,-6.6363,87.80000000000001,64,28,5.15,ci,1681329174
427,paramirim,-13.4333,-42.25,93.25400000000005,37,6,3.73,br,1681329175
428,pombas,17.15,-25.0167,76.78399999999999,72,13,5.91,cv,1681329175
429,cangzhou,38.3167,116.8667,79.7,42,99,7.05,cn,1681329176
430,catamarca,-28.4696,-65.7852,81.59000000000003,59,41,3.43,ar,1681329177
431,aykhal,66.0,111.5,15.404000000000053,70,28,8.1,ru,1681329177
432,fortuna,40.5983,-124.1561,51.87200000000004,60,11,8.23,us,1681329178
433,aklavik,68.2167,-135.0,3.7580000000000027,59,79,5.51,ca,1681329179
434,dicabisagan,17.0818,122.4157,85.49600000000005,67,100,2.88,ph,1681329180
435,avera,-22.45,-151.35,75.81200000000007,69,25,5.46,pf,1681329180
436,chicama,-7.7025,-79.4392,80.74400000000009,75,69,5.36,pe,1681329181
437,leeuwarden,53.2014,5.8086,51.47600000000009,70,100,9.08,nl,1681329182
438,abalak,15.4522,6.2783,99.95,8,62,9.25,ne,1681329183
439,henties bay,-22.1167,14.2833,68.19800000000004,59,0,5.56,na,1681329183
440,primorsk,60.3658,28.6182,42.92600000000009,89,97,5.74,ru,1681329184
441,halifax,44.65,-63.6,48.83000000000004,64,83,7.02,ca,1681329185
442,halalo,-13.35,-176.1833,83.96600000000001,74,41,5.98,wf,1681329186
443,chuy,-33.6833,-53.45,77.54000000000002,59,38,6.82,uy,1681329186
444,pishin,30.5803,66.9961,79.37600000000009,14,0,2.57,pk,1681329187
445,grand gaube,-20.0064,57.6608,81.66200000000006,80,81,6.89,mu,1681329188
446,marcona,-15.2119,-75.1103,72.1760000000001,58,65,7.21,pe,1681329189
447,abu samrah,24.7483,50.84,97.82600000000009,20,5,7.13,qa,1681329189
448,omsukchan,62.5333,155.8,18.08600000000007,63,12,1.85,ru,1681329190
449,ahipara,-35.1667,173.1667,70.17800000000007,75,43,3.36,nz,1681329191
450,homer,59.6425,-151.5483,37.418000000000085,79,40,8.28,us,1681329191
451,tuatapere,-46.1333,167.6833,58.92800000000007,87,99,4.32,nz,1681329192
452,roma,-26.5674,148.7875,79.808,24,0,7.71,au,1681329193
453,schroeder,-26.4333,-49.0667,87.26000000000008,42,0,1.69,br,1681329194
454,husavik,66.05,-17.35,34.952000000000076,100,100,4.84,is,1681329195
455,roxana,10.2753,-83.7513,94.02800000000008,51,42,3.34,cr,1681329196
456,hit,33.6367,42.8225,78.62000000000006,53,68,10.86,iq,1681329197
457,taoudenni,22.6667,-3.9833,93.56000000000009,7,99,6.24,ml,1681329198
458,lagoa,39.05,-27.9833,59.46800000000009,79,100,5.28,pt,1681329198
459,cayenne,4.9333,-52.3333,84.23600000000008,75,51,4.29,gf,1681329199
460,lasa,29.65,91.1,58.946000000000055,17,29,4.81,cn,1681329200
461,honiara,-9.4333,159.95,85.83800000000005,69,62,1.91,sb,1681329200
462,richards bay,-28.7754,32.054,81.15800000000002,53,3,6.84,za,1681329201
463,muana,-1.5333,-49.2167,86.64800000000002,62,86,2.07,br,1681329202
464,carutapera,-1.2167,-46.0167,85.92800000000007,72,89,3.26,br,1681329203
465,mabopane,-25.4977,28.1007,77.73800000000006,28,0,5.1,za,1681329203
466,aksu,41.1231,80.2644,67.94600000000005,14,68,7.3,cn,1681329204
467,cavalcante,-13.8,-47.5,80.6,67,98,3.34,br,1681329205
468,saint-augustin,51.2333,-58.65,42.96200000000006,90,100,3.46,ca,1681329206
469,ixtapa,17.6667,-101.65,83.78600000000007,53,75,4.04,mx,1681329206
470,sai buri,6.7013,101.6168,90.14000000000001,58,59,5.37,th,1681329207
471,kodinsk,58.6881,99.1844,35.852000000000075,74,100,6.43,ru,1681329208
472,worland,44.0169,-107.9547,67.1,37,100,4.17,us,1681329209
473,antofagasta,-23.65,-70.4,72.82400000000001,64,9,3.87,cl,1681329210
474,mackay,-21.1535,149.1655,86.05400000000006,63,100,5.71,au,1681329210
475,cacu,-18.6167,-51.0667,85.29800000000003,57,100,2.37,br,1681329211
476,jumla,29.25,82.25,68.39600000000004,20,39,4.23,np,1681329212
477,mortka,59.3322,66.0214,33.29600000000005,81,100,6.36,ru,1681329213
478,hailin,44.5833,129.4167,55.83200000000002,17,44,7.29,cn,1681329213
479,luxor,25.6833,32.65,75.03800000000004,20,0,10.34,eg,1681329214
480,den helder,52.9561,4.7594,48.110000000000085,74,92,12.12,nl,1681329215
481,kupang,-10.1667,123.5833,84.308,75,59,4.9,id,1681329216
482,chaozhou,23.6651,116.6379,82.54400000000007,54,18,3.86,cn,1681329217
483,houston,54.4,-126.65,41.45,69,92,2.56,ca,1681329217
484,bargal,11.2833,51.0833,86.64800000000002,64,52,4.93,so,1681329218
485,waipawa,-41.4122,175.5153,60.044000000000075,79,99,3.17,nz,1681329219
486,gladstone,-23.8476,151.2563,90.91400000000004,43,0,6.26,au,1681329220
487,severo-kurilsk,50.6789,156.125,34.46600000000001,97,100,14.92,ru,1681329221
488,nushki,29.5542,66.0215,89.38399999999999,9,0,3.61,pk,1681329221
489,kamenka,44.4569,136.0122,49.92800000000007,43,40,5.72,ru,1681329222
490,karratha,-20.7365,116.8464,91.50800000000001,52,100,4.61,au,1681329223
491,nova olimpia,-14.8167,-57.3333,85.83800000000005,67,45,2.83,br,1681329224
492,nipawin,53.3667,-104.0167,45.59000000000002,65,28,7.13,ca,1681329225
493,kuche,41.7278,82.9364,65.87600000000009,24,2,6.7,cn,1681329225
494,kishtwar,33.3167,75.7667,75.63200000000002,27,3,3.34,in,1681329226
495,burnie,-41.0558,145.9037,64.65200000000007,60,3,4.37,au,1681329227
496,medveda,43.6292,21.0783,58.33399999999999,44,40,7.01,rs,1681329227
497,gurgan,40.3975,50.3367,60.69199999999999,72,100,7.98,az,1681329228
498,zabid,14.1947,43.3156,101.17400000000002,24,64,12.26,ye,1681329229
499,constancia,24.2231,-107.1869,85.98200000000003,30,2,5.21,mx,1681329230
500,sentyabrskiy,45.2667,148.5,38.75,69,0,7.39,ru,1681329230
501,cidreira,-30.1833,-50.2,84.66800000000009,48,46,6.18,br,1681329231
502,mullaitivu,9.2667,80.8167,88.50200000000008,58,42,5.0,lk,1681329232
503,kortkeros,61.8106,51.5806,36.860000000000085,97,100,3.52,ru,1681329232
504,little current,45.9667,-81.9333,65.28200000000001,84,46,6.08,ca,1681329233
505,hvide sande,55.9964,8.1273,45.69800000000002,85,100,12.42,dk,1681329234
506,olovyannaya,50.95,115.5667,50.88200000000002,34,12,5.2,ru,1681329234
507,deputatskiy,69.3,139.9,8.528000000000066,76,7,2.36,ru,1681329235
508,chapais,49.7833,-74.8667,35.52800000000006,67,88,6.68,ca,1681329236
509,natal,-5.7833,-35.2167,87.90800000000002,62,98,6.64,br,1681329237
510,duiwelskloof,-23.6934,30.14,74.858,63,98,2.86,za,1681329237
511,buraydah,26.326,43.975,94.71200000000006,24,100,18.59,sa,1681329238
512,rajur,20.1167,78.9167,106.52000000000007,15,95,2.71,in,1681329239
513,finschhafen,-6.6,147.85,81.24800000000002,82,100,4.44,pg,1681329239
514,erdenet,49.0333,104.0833,33.42200000000004,61,100,8.71,mn,1681329240
515,nanortalik,60.1167,-45.2167,33.74600000000005,88,51,3.27,gl,1681329241
516,san carlos de bariloche,-41.1403,-71.3014,57.14600000000005,61,86,4.26,ar,1681329242
517,trofors,65.5667,13.4167,46.58000000000004,100,94,3.43,no,1681329243
518,jiddah,21.5169,39.2192,90.57200000000003,71,2,11.31,sa,1681329244
519,nioro,15.2333,-9.5833,101.17400000000002,24,47,8.44,ml,1681329245
520,itarema,-2.9,-39.9667,84.68600000000006,68,61,4.76,br,1681329246
521,alhama de murcia,37.851,-1.4251,87.69200000000001,17,2,10.08,es,1681329246
522,ozark,31.4589,-85.6406,72.68000000000004,43,63,6.4,us,1681329247
523,dhidhdhoo,6.8833,73.1,84.23600000000008,72,7,3.3,mv,1681329248
524,karabanovo,56.3167,38.7,60.27800000000006,38,79,2.21,ru,1681329249
525,muisne,0.6081,-80.0442,83.24600000000005,78,50,4.02,ec,1681329250
526,hendijan,30.2363,49.7119,86.63000000000005,26,95,9.18,ir,1681329251
527,aljezur,37.3192,-8.8033,66.25400000000005,62,100,6.01,pt,1681329251
528,faya,17.9167,19.1167,86.48600000000008,10,19,16.26,td,1681329252
529,marsh harbour,26.55,-77.05,74.15600000000003,81,100,11.87,bs,1681329253
530,hervey bay,-25.285,152.873,83.67800000000007,46,0,8.13,au,1681329254
531,port hardy,50.7167,-127.5,46.16600000000001,71,40,5.65,ca,1681329254
532,northam,-31.6493,116.6742,75.05600000000004,47,92,11.25,au,1681329255
533,cascais,38.6975,-9.4231,62.294000000000075,80,100,8.96,pt,1681329256
534,wildeshausen,52.9,8.4333,48.48800000000004,93,100,7.93,de,1681329257
535,rosario,-32.9468,-60.6393,73.00400000000005,58,100,4.75,ar,1681329257
536,aporawan,9.5994,118.3489,85.62200000000004,75,80,2.04,ph,1681329258
537,griffith,-34.2885,146.0509,71.9600000000001,53,15,3.92,au,1681329259
538,tomatlan,19.9333,-105.25,92.30000000000001,24,61,6.02,mx,1681329260
539,mindelo,16.8833,-25.0,77.18000000000004,71,11,7.56,cv,1681329260
540,san luis,-33.295,-66.3356,67.55000000000001,75,100,9.57,ar,1681329261
541,tutoia,-2.75,-42.2667,86.50400000000005,57,11,4.87,br,1681329262
542,praia,14.9167,-23.5167,75.75800000000001,66,1,5.47,cv,1681329263
543,bardiyah,31.7667,25.1,64.65200000000007,54,11,11.8,ly,1681329264
544,williston,48.1333,-103.6333,56.55200000000008,47,90,7.18,us,1681329264
545,nemuro,43.3236,145.575,41.648000000000025,78,93,9.87,jp,1681329265
546,yarkovo,57.4028,67.0786,50.21600000000001,52,100,6.55,ru,1681329266
547,thanh hoa,19.8,105.7667,84.74000000000002,73,86,6.33,vn,1681329267
548,bolgatanga,10.7856,-0.8514,107.16800000000009,9,40,4.96,gh,1681329267
549,dakar,14.6708,-17.4381,71.51000000000008,78,22,7.83,sn,1681329268
550,boa vista,2.8167,-60.6667,95.32400000000001,37,77,5.02,br,1681329269
551,naco,15.3833,-88.1833,93.66800000000009,32,7,3.21,hn,1681329270
552,tupik,54.4253,119.9327,32.378000000000064,83,98,2.68,ru,1681329270
553,nexo,55.059,15.1328,43.358000000000004,86,8,7.77,dk,1681329271
554,kholm,36.6974,67.6983,89.34800000000003,27,86,4.79,af,1681329272
555,kutum,14.2,24.6667,88.64600000000004,15,62,9.25,sd,1681329272
556,stoyba,52.8,131.7,31.58600000000007,64,99,6.39,ru,1681329273
557,ambovombe,-25.1667,46.0833,81.5,60,91,5.81,mg,1681329274
558,hobyo,5.3514,48.5256,86.39600000000004,67,99,6.68,so,1681329275
559,cabedelo,-6.9667,-34.8333,84.92000000000007,72,89,7.37,br,1681329275
560,la orilla,17.9833,-102.2333,85.40600000000003,45,63,4.98,mx,1681329276
561,katsuura,35.1333,140.3,61.016000000000005,49,43,10.45,jp,1681329277
562,killorglin,52.1,-9.7833,47.66000000000008,77,100,15.21,ie,1681329279
563,nyurba,63.2842,118.3319,28.454000000000054,75,41,4.63,ru,1681329279
564,mirnyy,62.5353,113.9611,22.85600000000003,71,15,4.16,ru,1681329280
565,talcahuano,-36.7167,-73.1167,62.276000000000096,81,95,3.67,cl,1681329282
566,kaduqli,11.0167,29.7167,103.28000000000004,23,100,6.78,sd,1681329282
567,chute-aux-outardes,49.1167,-68.3833,55.58000000000004,67,67,6.84,ca,1681329283
568,sakakah,29.9697,40.2064,78.60200000000009,34,95,14.69,sa,1681329284
569,warqla,31.9575,5.3278,83.51600000000002,11,0,5.64,dz,1681329284
570,qianan,44.9932,124.0581,55.562000000000054,17,2,5.61,cn,1681329285
571,novyy yegorlyk,46.3927,41.8716,68.72000000000006,50,100,7.83,ru,1681329286
572,fare,-16.7,-151.0167,82.38200000000002,68,47,5.83,pf,1681329286
573,touros,-5.2,-35.4667,86.93600000000006,64,28,7.21,br,1681329287
574,wundanyi,-3.4,38.3667,76.04600000000005,59,95,3.48,ke,1681329288
575,alto longa,-5.25,-42.2,89.52800000000008,52,64,2.66,br,1681329289
576,necochea,-38.5473,-58.7368,60.656000000000034,60,68,11.18,ar,1681329289
577,salym,60.0625,71.4789,28.382000000000016,81,100,5.74,ru,1681329290
578,suhbaatar,50.2314,106.2078,37.67000000000006,35,100,9.19,mn,1681329291
579,brokopondo,5.0667,-54.9667,89.07800000000006,53,68,2.55,sr,1681329291
580,aberdeen,46.9756,-123.8144,50.72000000000006,73,75,5.01,us,1681329292
581,canutama,-6.5333,-64.3333,91.4,53,98,1.14,br,1681329293
582,guangyuan,32.442,105.823,78.90800000000002,58,82,5.62,cn,1681329294
583,kendari,-3.945,122.4989,87.458,64,94,2.98,id,1681329294
584,picos,-7.0833,-41.4667,95.684,38,25,2.02,br,1681329295
585,qinhuangdao,39.9317,119.5883,63.21200000000006,52,99,6.31,cn,1681329296
586,bor,49.7131,12.7763,45.95,96,99,4.5,cz,1681329296
587,port lincoln,-34.7263,135.8744,63.986000000000075,59,5,5.85,au,1681329297
588,senanga,-16.1167,23.2667,90.21200000000006,33,80,3.7,zm,1681329298
589,aviles,43.5547,-5.9248,59.0,54,97,7.01,es,1681329299
590,barcelos,-1.0,-62.9667,80.74400000000009,94,100,1.15,br,1681329300
591,ishige,36.1167,139.9667,69.96200000000006,15,0,6.35,jp,1681329301
592,yendi,9.4333,-0.0167,103.62200000000004,26,100,4.83,gh,1681329301
593,juifang,25.1097,121.8042,76.17200000000004,81,32,6.64,tw,1681329303
594,maniitsoq,65.4167,-52.9,30.272000000000038,81,84,4.66,gl,1681329304
595,dunda,-8.1167,34.25,82.58000000000004,60,22,1.88,tz,1681329304
596,fountain hills,33.6117,-111.7167,87.83600000000007,10,85,7.91,us,1681329305
597,pierre,44.3683,-100.3506,70.358,47,0,6.58,us,1681329306
598,sumenep,-7.0167,113.8667,85.40600000000003,72,100,3.46,id,1681329307
599,paka,4.6374,103.4368,88.07000000000006,60,91,4.22,my,1681329308
600,dustlik,40.5247,68.0358,85.334,29,100,9.58,uz,1681329309
601,prabumulih,-3.45,104.25,93.21800000000009,52,80,1.81,id,1681329309
602,naryan-mar,67.6418,53.0431,11.804000000000052,84,81,7.57,ru,1681329310
603,maturin,9.75,-63.1767,94.08200000000002,37,91,6.22,ve,1681329311
604,hakkari,37.5744,43.7408,46.09400000000007,100,100,3.76,tr,1681329312
605,gizo,-8.1,156.85,81.96800000000009,77,100,3.68,sb,1681329313
606,olafsvik,64.8833,-23.7167,39.758,76,97,4.34,is,1681329314
607,teseney,15.11,36.6575,105.53000000000004,15,23,8.1,er,1681329316
608,aitape,-3.1333,142.35,84.52400000000002,69,69,3.39,pg,1681329316
609,phalaborwa,-23.943,31.1411,82.94000000000003,54,88,4.41,za,1681329317
610,bella union,-30.25,-57.5833,85.74800000000002,53,37,7.42,uy,1681329318
611,takoradi,4.8833,-1.75,87.04400000000007,68,92,5.96,gh,1681329319
612,hay river,60.85,-115.7,30.218000000000085,63,68,4.49,ca,1681329319
613,cravo norte,6.3017,-70.2042,94.40600000000003,50,100,3.48,co,1681329322
614,tommot,58.9564,126.2925,32.648000000000025,86,100,3.57,ru,1681329322
615,rock hill,34.9247,-81.0253,79.03399999999999,32,0,2.36,us,1681329323
616,santiago del estero,-27.7951,-64.2615,81.608,56,58,5.75,ar,1681329324
617,golynki,54.8696,31.3861,59.846000000000046,41,93,6.32,ru,1681329325
618,songjianghe,42.1859,127.4789,56.858000000000004,37,100,6.48,cn,1681329326
619,magadan,59.5667,150.8,29.318000000000087,59,0,4.74,ru,1681329326
620,zheshart,62.0731,49.5733,37.88600000000007,93,100,3.79,ru,1681329327
621,colares,38.7992,-9.4469,61.84400000000008,82,100,9.37,pt,1681329328
622,dzhusaly,45.4878,64.0781,84.88399999999999,16,100,11.45,kz,1681329329
623,paradwip,20.3167,86.6167,96.56600000000002,36,0,6.83,in,1681329329
624,yingzhong,31.1661,112.5831,84.57800000000006,55,47,2.32,cn,1681329330
625,atar,20.5167,-13.05,94.01000000000008,29,99,8.49,mr,1681329331
626,abay,49.6311,72.8539,60.674000000000014,31,86,4.51,kz,1681329331
627,safford,32.8339,-109.7069,89.74400000000009,16,10,7.16,us,1681329332
628,goure,13.9869,10.27,98.6180000000001,7,100,9.77,ne,1681329334
629,yaypan,40.3758,70.8156,81.05000000000001,32,100,5.24,uz,1681329336
630,teguise,29.0605,-13.564,66.63200000000002,69,5,10.79,es,1681329337
631,saint-pierre,46.7667,-56.1833,35.45600000000003,94,100,7.72,pm,1681329338
632,dingle,52.1408,-10.2689,47.858000000000004,73,100,19.93,ie,1681329338
633,el campo,29.1964,-96.2694,76.1,52,24,4.14,us,1681329339
634,kalaleh,37.3807,55.4916,99.78800000000005,13,100,10.78,ir,1681329340
635,tessalit,20.2014,1.0089,93.2,7,90,3.27,ml,1681329340
